name, latitude, longitude, orog
LangtjernNIVA,60.37129,9.728,516
GulsvikIInew,60.383,9.605,142
GulsvikIV,60.3897,9.573,149
NesbyenII,60.5667,9.1333,165
NesbyenSkoglund,60.5685,9.122,167
NesbyenTodokk,60.5672,9.1337,166
Rygge,59.3787,10.7752,40
RyggeHuggenes,59.398,10.7543,35
MjoesaSkreia,60.667,11.083,123
VansjoeStorefjorden,59.39342,10.83656,25
VansjoeVanemfjorden,59.4435,10.75461,25
HoboelelvaKure,59.529395,10.83975,47
